[
  {"typeKey": "regionalOffice", "latitude": 3.133333, "longitude": 101.683333, "type": "regional office", "region": "Asia and Pacific", "city": "Kuala Lumpur", "country": "Malaysia" },
  {"typeKey": "regionalOffice", "latitude": 47.4925, "longitude": 19.051389, "type": "regional office", "region": "Europe", "city": "Budapest", "country": "Hungary" },
  {"typeKey": "regionalOffice", "latitude": 9.101178, "longitude": -79.402864, "type": "regional office", "region": "Americas", "city": "Panama City", "country": "Panama" },
  {"typeKey": "regionalOffice", "latitude": -1.292066, "longitude": 36.821946, "type": "regional office", "region": "Africa", "city": "Nairobi", "country": "Kenya" },
  {"typeKey": "regionalOffice", "latitude": 33.888629, "longitude": 35.495479, "type": "regional office", "region": "Middle East and North Africa", "city": "Beirut", "country": "Lebanon" },
  {"typeKey": "subCountryOffice", "latitude": 8.738157, "longitude": 80.477147, "type": "sub-country office", "subCountry": "Vavuniya", "city": "Vavuniya" },
  {"typeKey": "subCountryOffice", "latitude": 11.254339, "longitude": 124.961687, "type": "sub-country office", "subCountry": "Tacloban", "city": "Tacloban" },
  {"typeKey": "EbolaTreatmentCentre", "latitude": 8.644813, "longitude": -10.969397, "type": "Ebola treatment centre", "city": "Kono", "country": "Sierra Leone" },
  {"typeKey": "liaisonOffice", "latitude": 50.850340, "longitude": 4.351710, "type": "liaison office", "purpose": "Brussels", "city": "Brussels", "country": "Belgium" },
  {"typeKey": "liaisonOffice", "latitude": 40.712784, "longitude": -74.005941, "type": "liaison office", "purpose": "New York", "city": "New York ", "country": "USA" },
  {"typeKey": "liaisonOffice", "latitude": 8.980603, "longitude": 38.757761, "type": "liaison office", "purpose": "African Union", "city": "Addis Ababa", "country": "Ethiopia" },
  {"typeKey": "globalLogisticsService", "latitude": 25.204849, "longitude": 55.270783, "type": "global logistics service", "city": "Dubai", "country": "United Arab Emirates" },
  {"typeKey": "globalLogisticsService", "latitude": 28.123546, "longitude": -15.436257, "type": "global logistics service", "city": "Las Palmas" },
  {"typeKey": "countryClusterOffice", "latitude": 28.613939, "longitude": 77.209021, "type": "country cluster office", "cluster": "South Asia", "city": "New Delhi", "country": "India" },
  {"typeKey": "countryClusterOffice", "latitude": 13.756331, "longitude": 100.501765, "type": "country cluster office", "cluster": "South East Asia", "city": "Bangkok", "country": "Thailand" },
  {"typeKey": "countryClusterOffice", "latitude": 39.904211, "longitude": 116.407395, "type": "country cluster office", "cluster": "East Asia", "city": "Beijing", "country": "China" },
  {"typeKey": "countryClusterOffice", "latitude": -18.124809, "longitude": 178.450079, "type": "country cluster office", "cluster": "Pacific", "city": "Suva", "country": "" },
  {"typeKey": "countryClusterOffice", "latitude": 55.755826, "longitude": 37.617300, "type": "country cluster office", "cluster": "Russia", "city": "Moscow", "country": "Russia" },
  {"typeKey": "countryClusterOffice", "latitude": -34.603684, "longitude": -58.381559, "type": "country cluster office", "cluster": "Argentina-Uruguay", "city": "Buenos Aires", "country": "Argentina" },
  {"typeKey": "countryClusterOffice", "latitude": -12.046374, "longitude": -77.042793, "type": "country cluster office", "cluster": "Andean Region", "city": "Lima", "country": "" },
  {"typeKey": "countryClusterOffice", "latitude": 10.654901, "longitude": -61.501926, "type": "country cluster office", "cluster": "Caribbean", "city": "Port of Spain", "country": "" },
  {"typeKey": "countryClusterOffice", "latitude": 18.486058, "longitude": -69.931212, "type": "country cluster office", "cluster": "Dominican Rep.-Cuba", "city": "Santo Domingo", "country": "" },
  {"typeKey": "countryClusterOffice", "latitude": 37.338208, "longitude": -121.886329, "type": "country cluster office", "cluster": "Costa Rica-Panama", "city": "San José", "country": "" },
  {"typeKey": "countryClusterOffice", "latitude": 14.113406, "longitude": -87.236953, "type": "country cluster office", "cluster": "Honduras-Nicaragua", "city": "Comayagüela ", "country": "" },
  {"typeKey": "countryClusterOffice", "latitude": 14.634915, "longitude": -90.506882, "type": "country cluster office", "cluster": "Guatemala-El Salvador", "city": "Guatemala City", "country": "Guatemala" },
  {"typeKey": "countryClusterOffice", "latitude": 5.359952, "longitude": -4.008256, "type": "country cluster office", "cluster": "West Coast", "city": "Abidjan", "country": "Côte d'Ivoire" },
  {"typeKey": "countryClusterOffice", "latitude": 3.848032, "longitude": 11.502075, "type": "country cluster office", "cluster": "Central Africa", "city": "Yaoundé", "country": "Cameroon" },
  {"typeKey": "countryClusterOffice", "latitude": -18.879190, "longitude": 47.507905, "type": "country cluster office", "cluster": "Indian Ocean Islands", "city": "Antananarivo", "country": "Madagascar" },
  {"typeKey": "countryClusterOffice", "latitude": -1.292066, "longitude": 36.821946, "type": "country cluster office", "cluster": "East Africa", "city": "Nairobi", "country": "Kenya" },
  {"typeKey": "countryClusterOffice", "latitude": 14.764504, "longitude": -17.366029, "type": "country cluster office", "cluster": "Sahel", "city": "Dakar", "country": "Senegal" },
  {"typeKey": "countryClusterOffice", "latitude": -24.628208, "longitude": 25.923147, "type": "country cluster office", "cluster": "Southern Africa", "city": "Gaborone", "country": "Botswana" },
  {"typeKey": "countryClusterOffice", "latitude": 33.886917, "longitude": 9.537499, "type": "country cluster office", "cluster": "North Africa", "city": "Tunis", "country": "Tunisia" },
  {"typeKey": "countryClusterOffice", "latitude": -6.208763, "longitude": 106.845599, "type": "country cluster office", "cluster": "Indonesia", "city": "Jakarta", "country": "Indonesia" },
  {"typeKey": "countryOffice", "latitude": 34.555349, "longitude": 69.207486,  "type": "country office", "country": "Afghanistan", "city": "Kabul" },
  {"typeKey": "countryOffice", "latitude": 23.810332, "longitude": 90.412518,  "type": "country office", "country": "Bangladesh", "city": "Dhaka" },
  {"typeKey": "countryOffice", "latitude": 27.717245, "longitude": 85.323960,  "type": "country office", "country": "Nepal", "city": "Kathmandu" },
  {"typeKey": "countryOffice", "latitude": 33.729388, "longitude": 73.093146,  "type": "country office", "country": "Pakistan", "city": "Islamabad" },
  {"typeKey": "countryOffice", "latitude": 6.927079, "longitude": 79.861243,  "type": "country office", "country": "Sri Lanka", "city": "Colombo" },
  {"typeKey": "countryOffice", "latitude": 11.544873, "longitude": 104.892167,  "type": "country office", "country": "Cambodia", "city": "Phnom Penh" },
  {"typeKey": "countryOffice", "latitude": -8.556856, "longitude": 125.560314,  "type": "country office", "country": "East Timor", "city": "Dili" },
  {"typeKey": "countryOffice", "latitude": 16.866069, "longitude": 96.195132,  "type": "country office", "country": "Myanmar", "city": "Yangon" },
  {"typeKey": "countryOffice", "latitude": 14.599512, "longitude": 120.984219,  "type": "country office", "country": "Philippines", "city": "Manila" },
  {"typeKey": "countryOffice", "latitude": 21.027764, "longitude": 105.834160,  "type": "country office", "country": "Vietnam", "city": "Hanoi" },
  {"typeKey": "countryOffice", "latitude": 39.039219, "longitude": 125.762524,  "type": "country office", "country": "Korea, Democratic Peoples Rep. of", "city": "Pyongyang" },
  {"typeKey": "countryOffice", "latitude": 47.886399, "longitude": 106.905744,  "type": "country office", "country": "Mongolia", "city": "Ulaanbaatar" },
  {"typeKey": "countryOffice", "latitude": 7.116421, "longitude": 171.185774,  "type": "country office", "country": "Marshall Islands", "city": "Majuro" },
  {"typeKey": "countryOffice", "latitude": -17.733251, "longitude": 168.327325,  "type": "country office", "country": "Vanuatu", "city": "Port Vila" },
  {"typeKey": "countryOffice", "latitude": 43.222015, "longitude": 76.851248,  "type": "country office", "country": "Kazakhstan", "city": "Almaty" },
  {"typeKey": "countryOffice", "latitude": 42.874621, "longitude": 74.569762,  "type": "country office", "country": "Kyrgyzstan", "city": "Bishkek" },
  {"typeKey": "countryOffice", "latitude": 43.856259, "longitude": 18.413076,  "type": "country office", "country": "Bosnia and Herzegovina", "city": "Sarajevo" },
  {"typeKey": "countryOffice", "latitude": 41.715138, "longitude": 44.827096,  "type": "country office", "country": "Georgia", "city": "Tbilisi" },
  {"typeKey": "countryOffice", "latitude": 42.662914, "longitude": 21.165503,  "type": "country office", "country": "Kosovo", "city": "Pristina" },
  {"typeKey": "countryOffice", "latitude": 53.904540, "longitude": 27.561524,  "type": "country office", "country": "Belarus", "city": "Minsk" },
  {"typeKey": "countryOffice", "latitude": 38.559772, "longitude": 68.787038,  "type": "country office", "country": "Tajikistan", "city": "Dushanbe" },
  {"typeKey": "countryOffice", "latitude": 39.933363, "longitude": 32.859742,  "type": "country office", "country": "Turkey", "city": "Ankara" },
  {"typeKey": "countryOffice", "latitude": -22.906847, "longitude": -43.172896,  "type": "country office", "country": "Brazil", "city": "Rio de Janeiro" },
  {"typeKey": "countryOffice", "latitude": 18.594395, "longitude": -72.307433,  "type": "country office", "country": "Haiti", "city": "Port-au-Prince" },
  {"typeKey": "countryOffice", "latitude": 13.692940, "longitude": -89.218191,  "type": "country office", "country": "El Salvador", "city": "San Salvador" },
  {"typeKey": "countryOffice", "latitude": 12.114993, "longitude": -86.236174,  "type": "country office", "country": "Nicaragua", "city": "Managua" },
  {"typeKey": "countryOffice", "latitude": 19.432608, "longitude": -99.133208,  "type": "country office", "country": "Mexico", "city": "Mexico City" },
  {"typeKey": "countryOffice", "latitude": 5.603717, "longitude": -0.186964,  "type": "country office", "country": "Ghana", "city": "Accra" },
  {"typeKey": "countryOffice", "latitude": 6.290743, "longitude": -10.760524,  "type": "country office", "country": "Liberia", "city": "Monrovia" },
  {"typeKey": "countryOffice", "latitude": 9.076479, "longitude": 7.398574,  "type": "country office", "country": "Nigeria", "city": "Abuja" },
  {"typeKey": "countryOffice", "latitude": 8.465677, "longitude": -13.231722,  "type": "country office", "country": "Sierra Leone", "city": "Freetown" },
  {"typeKey": "countryOffice", "latitude": 4.394673, "longitude": 18.558190,  "type": "country office", "country": "Central African Republic", "city": "Bangui" },
  {"typeKey": "countryOffice", "latitude": 8.980603, "longitude": 38.757761,  "type": "country office", "country": "Ethiopia", "city": "Addis Ababa" },
  {"typeKey": "countryOffice", "latitude": 2.046934, "longitude": 45.318162,  "type": "country office", "country": "Somalia", "city": "Mogadishu" },
  {"typeKey": "countryOffice", "latitude": 4.859363, "longitude": 31.571250,  "type": "country office", "country": "South Sudan", "city": "Juba" },
  {"typeKey": "countryOffice", "latitude": 15.500654, "longitude": 32.559899,  "type": "country office", "country": "Sudan", "city": "Khartoum" },
  {"typeKey": "countryOffice", "latitude": 1.373333, "longitude": 32.290275,  "type": "country office", "country": "Uganda" },
  {"typeKey": "countryOffice", "latitude": 12.134846, "longitude": 15.055742,  "type": "country office", "country": "Chad", "city": "N'Djamena" },
  {"typeKey": "countryOffice", "latitude": 9.641185, "longitude": -13.578401,  "type": "country office", "country": "Guinea", "city": "Conakry" },
  {"typeKey": "countryOffice", "latitude": 12.639232, "longitude": -8.002889,  "type": "country office", "country": "Mali", "city": "Bamako" },
  {"typeKey": "countryOffice", "latitude": 13.511596, "longitude": 2.125385,  "type": "country office", "country": "Niger", "city": "Niamey" },
  {"typeKey": "countryOffice", "latitude": -13.962612, "longitude": 33.774119,  "type": "country office", "country": "Malawi", "city": "Lilongwe" },
  {"typeKey": "countryOffice", "latitude": -25.891968, "longitude": 32.605135,  "type": "country office", "country": "Mozambique", "city": "Maputo" },
  {"typeKey": "countryOffice", "latitude": -17.825166, "longitude": 31.033510,  "type": "country office", "country": "Zimbabwe", "city": "Harare" },
  {"typeKey": "countryOffice", "latitude": 35.689197, "longitude": 51.388974,  "type": "country office", "country": "Iran", "city": "Tehran" },
  {"typeKey": "countryOffice", "latitude": 33.312806, "longitude": 44.361488,  "type": "country office", "country": "Iraq", "city": "Baghdad" },
  {"typeKey": "countryOffice", "latitude": 31.956578, "longitude": 35.945695,  "type": "country office", "country": "Jordan", "city": "Amman" },
  {"typeKey": "countryOffice", "latitude": 31.952162, "longitude": 35.233154,  "type": "country office", "country": "Palestinian", "city": "Territories Al-Bireh" },
  {"typeKey": "countryOffice", "latitude": 15.369445, "longitude": 31.956578,  "type": "country office", "country": "Yemen", "city": "Sanaa" },
  {"typeKey": "countryOffice", "latitude": 33.513807, "longitude": 36.276528,  "type": "country office", "country": "Syria", "city": "Damascus" }
]
